,City,Lat,Lng,Max Temp,Humidity,Cloudiness,Wind Speed,Country,Date
0,Yellowknife,62.456,-114.3525,66.72,68,75,11.5,CA,1658972293
1,Bluff,-46.6,168.3333,47.8,87,100,12.66,NZ,1658972142
2,Baruun-Urt,46.6806,113.2792,68.25,42,12,2.93,MN,1658972301
3,Raudeberg,61.9875,5.1352,45.27,72,20,6.44,NO,1658972302
4,Manduria,40.4018,17.6335,78.98,81,0,9.82,IT,1658972302
5,Ayutla,20.1167,-104.3333,66.69,87,100,3.49,MX,1658972302
6,Rikitea,-23.1203,-134.9692,74.03,68,100,15.84,PF,1658972303
7,Praia Da Vitoria,38.7333,-27.0667,73.76,94,75,8.86,PT,1658972303
8,Hilo,19.7297,-155.09,86.29,76,75,10.36,US,1658972119
9,Grindavik,63.8424,-22.4338,49.95,93,75,23.02,IS,1658972303
10,Barrow,71.2906,-156.7887,33.82,100,100,17.27,US,1658972304
11,Orlik,52.5178,99.825,54.73,75,95,0.67,RU,1658972304
12,Mataura,-46.1927,168.8643,47.48,98,100,3.13,NZ,1658972304
13,Tiksi,71.6872,128.8694,68.67,59,84,5.61,RU,1658972305
14,Hobart,-42.8794,147.3294,53.06,65,88,3.0,AU,1658972305
15,Phayakkhaphum Phisai,15.5163,103.1937,87.42,63,6,6.6,TH,1658972305
16,Gorontalo,0.5412,123.0595,84.29,74,42,7.27,ID,1658972305
17,Vaini,-21.2,-175.2,80.76,83,20,9.22,TO,1658972140
18,Hit,33.6416,42.8251,88.84,14,0,8.34,IQ,1658972306
19,Yumen,40.2833,97.2,86.58,15,88,11.97,CN,1658972306
20,Longyearbyen,78.2186,15.6401,42.64,81,75,21.85,SJ,1658972306
21,Busselton,-33.65,115.3333,60.62,67,37,12.33,AU,1658972206
22,Port Hardy,50.6996,-127.4199,75.38,60,20,9.22,CA,1658972066
23,Haradok,55.4624,29.9816,57.31,95,99,6.85,BY,1658972307
24,Punta Arenas,-53.15,-70.9167,41.11,70,20,32.21,CL,1658972307
25,Bredasdorp,-34.5322,20.0403,48.56,92,0,5.68,ZA,1658972307
26,Inirida,3.8653,-67.9239,73.36,96,88,1.21,CO,1658972308
27,Sorong,-0.8833,131.25,81.41,80,15,3.74,ID,1658972308
28,Clyde River,70.4692,-68.5914,37.63,100,100,6.91,CA,1658972308
29,Petropavlovsk-Kamchatskiy,53.0452,158.6483,73.99,43,40,4.47,RU,1658972308
30,Cape Town,-33.9258,18.4232,60.39,79,0,1.14,ZA,1658972144
31,Sompeta,18.9333,84.6,83.79,75,94,4.16,IN,1658972309
32,Tres Arroyos,-38.3739,-60.2798,48.83,93,100,13.78,AR,1658972309
33,Te Anau,-45.4167,167.7167,41.79,98,100,1.63,NZ,1658972275
34,Dhidhdhoo,6.8833,73.1,81.5,76,34,15.99,MV,1658972309
35,Ushuaia,-54.8,-68.3,40.66,87,75,20.71,AR,1658972310
36,Ambon,-3.6954,128.1814,80.74,83,75,9.22,ID,1658972310
37,Lebu,-37.6167,-73.65,48.6,85,12,5.48,CL,1658972310
38,New Norfolk,-42.7826,147.0587,52.72,76,95,1.01,AU,1658972310
39,Puerto Leguizamo,-0.1934,-74.7819,68.92,99,96,2.35,CO,1658972311
40,Chuy,-33.6971,-53.4616,58.8,98,100,5.61,UY,1658972311
41,Callaway,30.153,-85.5699,83.91,82,0,1.99,US,1658972311
42,Namibe,-15.1961,12.1522,62.06,80,78,6.93,AO,1658972312
43,Port Alfred,-33.5906,26.891,63.27,81,81,17.56,ZA,1658972137
44,Vanimo,-2.6741,141.3028,86.05,66,49,7.25,PG,1658972312
45,Boralday,43.3578,76.8594,82.26,34,100,6.71,KZ,1658972372
46,Bandarbeyla,9.4942,50.8122,76.78,69,99,25.03,SO,1658972373
47,Young,-32.6833,-57.6333,63.07,94,86,6.29,UY,1658972373
48,Gizo,-8.103,156.8419,84.61,67,5,7.38,SB,1658972373
49,Qaanaaq,77.484,-69.3632,37.69,90,41,2.46,GL,1658972373
50,Zhanaozen,43.3,52.8,80.85,34,100,15.48,KZ,1658972374
51,Saint-Augustin,51.226,-58.6502,58.17,90,75,7.11,CA,1658972374
52,Kissidougou,9.1848,-10.0999,67.82,99,78,5.28,GN,1658972374
53,Bombay,19.0144,72.8479,78.78,100,75,0.0,IN,1658972147
54,Katsuura,35.1333,140.3,84.22,79,83,11.9,JP,1658972138
55,Auki,-8.7676,160.7034,86.52,61,19,3.83,SB,1658972092
56,Lompoc,34.6391,-120.4579,75.02,78,20,13.8,US,1658972232
57,Nome,64.5011,-165.4064,54.16,82,100,11.5,US,1658972375
58,Otradnoye,59.7775,30.8181,57.96,94,1,4.45,RU,1658972275
59,College,64.8569,-147.8028,61.07,63,75,12.66,US,1658972375
60,Rocha,-34.4833,-54.3333,64.08,93,100,8.3,UY,1658972376
61,Ponta Do Sol,32.6667,-17.1,72.23,76,0,5.21,PT,1658972076
62,Chifeng,42.2683,118.9636,65.53,85,100,2.39,CN,1658972376
63,Qeshm,26.9581,56.2719,85.87,74,100,22.24,IR,1658972376
64,Planaltina,-15.4528,-47.6142,59.99,55,1,4.29,BR,1658972377
65,Airai,-8.9266,125.4092,67.86,49,14,5.14,TL,1658972377
66,Mahebourg,-20.4081,57.7,67.24,94,40,4.61,MU,1658972377
67,Chokurdakh,70.6333,147.9167,60.15,35,97,13.87,RU,1658972244
68,Cayenne,4.9333,-52.3333,76.08,1,0,0.0,GF,1658972377
69,Pisco,-13.7,-76.2167,62.65,82,20,2.3,PE,1658972089
70,Nelson Bay,-32.7167,152.15,62.11,58,0,8.99,AU,1658972316
71,Nevelsk,46.6733,141.8633,67.64,77,23,5.66,RU,1658972378
72,Hithadhoo,-0.6,73.0833,82.49,73,100,11.88,MV,1658972378
73,Waiouru,-39.4833,175.6667,45.84,93,99,10.65,NZ,1658972378
74,Bengkulu,-3.8004,102.2655,81.18,72,47,1.7,ID,1658972379
75,Ketchikan,55.3422,-131.6461,77.47,41,0,9.22,US,1658972111
76,Tingi,-11.3,35.0333,54.57,82,6,1.86,TZ,1658972379
77,Alice Springs,-23.7,133.8833,56.75,28,3,14.97,AU,1658972379
78,Port Hedland,-20.3167,118.5667,75.25,31,0,11.5,AU,1658972380
79,Butaritari,3.0707,172.7902,81.84,77,11,14.43,KI,1658972380
80,Avarua,-21.2078,-159.775,77.05,69,75,20.71,CK,1658972380
81,Bathsheba,13.2167,-59.5167,81.21,86,40,18.41,BB,1658972148
82,Joshimath,30.5667,79.5667,71.67,89,99,0.36,IN,1658972381
83,Severo-Kurilsk,50.6789,156.125,55.38,86,96,7.07,RU,1658972381
84,Jalu,29.0331,21.5482,79.86,52,0,7.16,LY,1658972381
85,Los Llanos De Aridane,28.6585,-17.9182,71.13,91,20,17.27,ES,1658972381
86,Vinh,18.6667,105.6667,86.2,71,7,2.13,VN,1658972243
87,Dalvik,65.9702,-18.5286,51.73,82,5,9.78,IS,1658972086
88,Mahibadhoo,3.7833,72.9667,82.06,74,79,14.88,MV,1658972382
89,Provideniya,64.3833,-173.3,46.51,100,100,7.0,RU,1658972138
90,Qandala,11.472,49.8728,87.22,50,100,5.17,SO,1658972382
91,Norman Wells,65.282,-126.8329,66.24,39,75,2.3,CA,1658972421
92,Bilibino,68.0546,166.4372,52.29,47,100,3.09,RU,1658972443
93,Praia,14.9215,-23.5087,79.66,82,80,0.89,CV,1658972443
94,Saint-Philippe,-21.3585,55.7679,67.59,83,26,7.9,RE,1658972443
95,Aasiaat,68.7098,-52.8699,34.56,98,85,4.65,GL,1658972443
96,San Nicolas,18.1725,120.5953,87.71,74,75,2.3,PH,1658972444
97,Albany,42.6001,-73.9662,72.25,72,96,2.08,US,1658972267
98,Kavaratti,10.5669,72.642,78.19,88,100,17.4,IN,1658972358
99,Boende,-0.2167,20.8667,71.01,95,94,2.06,CD,1658972444
100,Arraial Do Cabo,-22.9661,-42.0278,69.76,78,0,10.36,BR,1658972444
101,Chapais,49.7834,-74.8492,67.78,93,100,2.71,CA,1658972445
102,Codrington,-38.2667,141.9667,51.78,77,100,10.04,AU,1658972445
103,Upington,-28.4478,21.2561,43.18,75,0,0.0,ZA,1658972373
104,Tromso,69.6496,18.957,48.22,87,100,5.75,NO,1658972185
105,Lata,40.1629,-8.3327,55.06,93,0,2.1,PT,1658972445
106,Pevek,69.7008,170.3133,36.18,87,96,4.56,RU,1658972446
107,Richards Bay,-28.783,32.0377,64.63,87,87,5.84,ZA,1658972212
108,Poum,-20.2333,164.0167,73.81,67,100,14.03,NC,1658972446
109,Linxia,35.6003,103.2064,71.85,44,40,0.58,CN,1658972446
110,Kushiro,42.975,144.3747,74.35,83,75,4.61,JP,1658972447
111,Kenai,60.5544,-151.2583,69.89,32,0,8.05,US,1658972447
112,Leningradskiy,69.3833,178.4167,39.29,80,96,6.35,RU,1658972261
113,Olafsvik,64.8945,-23.7142,47.84,81,100,25.59,IS,1658972193
114,Rio Verde De Mato Grosso,-18.9181,-54.8442,75.34,30,0,2.95,BR,1658972447
115,Fort Saint James,54.4333,-124.25,89.35,30,2,4.38,CA,1658972448
116,Kapaa,22.0752,-159.319,85.98,65,40,16.11,US,1658972448
117,Dikson,73.5069,80.5464,40.64,94,96,12.66,RU,1658972448
118,San Patricio,28.017,-97.5169,87.75,65,5,12.91,US,1658972449
119,Cidreira,-30.1811,-50.2056,60.76,87,100,6.17,BR,1658972449
120,Strezhevoy,60.7333,77.5889,61.79,67,47,8.84,RU,1658972449
121,Kirovskiy,45.0917,133.5136,84.33,67,47,1.79,RU,1658972450
122,Maceio,-9.6658,-35.7353,74.64,83,40,3.44,BR,1658972450
123,Hurghada,27.2574,33.8129,86.04,16,0,9.22,EG,1658972450
124,Thompson,55.7435,-97.8558,60.96,77,75,4.61,CA,1658972450
125,Tomatlan,19.9333,-105.25,79.48,79,100,1.36,MX,1658972451
126,Isangel,-19.55,169.2667,77.47,82,100,12.08,VU,1658972419
127,Svetlogorsk,52.6333,29.7333,53.53,97,89,7.4,BY,1658972451
128,Dunedin,-45.8742,170.5036,46.8,89,100,8.01,NZ,1658972451
129,Rawson,-43.3002,-65.1023,41.45,78,10,13.98,AR,1658972452
130,Puerto Ayora,-0.7393,-90.3518,68.56,96,99,3.0,EC,1658972281
131,Tuktoyaktuk,69.4541,-133.0374,48.2,87,75,13.8,CA,1658972452
132,Manta,-0.95,-80.7333,73.18,83,75,8.05,EC,1658972266
133,Ancud,-41.8697,-73.8203,43.45,92,22,4.79,CL,1658972452
134,Chinhoyi,-17.3667,30.2,52.84,75,0,4.16,ZW,1658972453
135,Igarka,67.4667,86.5833,57.74,80,91,8.66,RU,1658972453
136,Ribeira Grande,38.5167,-28.7,72.72,85,34,11.18,PT,1658972453
137,Sunrise Manor,36.2111,-115.0731,96.91,36,20,11.5,US,1658972454
138,Mackay,-21.15,149.2,70.68,53,0,14.88,AU,1658972413
139,Hermanus,-34.4187,19.2345,52.11,83,0,12.53,ZA,1658972514
140,Eura,61.1333,22.1333,58.78,80,100,5.19,FI,1658972514
141,Antofagasta,-23.65,-70.4,56.48,85,90,6.98,CL,1658972421
142,Mujiayingzi,42.1167,118.7833,64.85,85,100,3.2,CN,1658972515
143,Komsomolskiy,40.4272,71.7189,79.52,44,3,6.91,UZ,1658972292
144,Bambanglipuro,-7.95,110.2833,80.8,75,72,6.49,ID,1658972515
145,Caravelas,-17.7125,-39.2481,68.38,84,14,2.33,BR,1658972515
146,Tagusao,9.1924,117.8141,85.05,72,100,4.97,PH,1658972516
147,Spoleto,42.7448,12.7374,68.16,90,0,3.38,IT,1658972516
148,Jacksonville,30.3322,-81.6556,82.98,79,75,18.41,US,1658972516
149,Labuhan,-6.8844,112.2051,82.65,71,100,7.38,ID,1658972517
150,Kerekegyhaza,46.9372,19.4781,69.75,49,100,8.34,HU,1658972517
151,Mlonggo,-6.5333,110.7,83.19,65,96,2.17,ID,1658972517
152,Tual,-5.6667,132.75,79.02,84,61,21.68,ID,1658972517
153,Tianpeng,30.9866,103.9393,81.72,68,0,1.7,CN,1658972518
154,Cairns,-16.9167,145.7667,79.07,67,40,20.71,AU,1658972218
155,Atuona,-9.8,-139.0333,76.87,75,31,22.86,PF,1658972518
156,Omboue,-1.5746,9.2618,70.84,89,64,6.08,GA,1658972518
157,Mazyr,52.0495,29.2456,53.46,96,87,6.2,BY,1658972519
158,Morros,-9.4467,-46.3003,69.85,41,0,3.29,BR,1658972519
159,Upernavik,72.7868,-56.1549,40.19,85,100,1.74,GL,1658972519
160,Northam,51.0333,-4.2167,55.38,84,100,3.83,GB,1658972519
161,Kodiak,57.79,-152.4072,63.91,48,0,12.66,US,1658972347
162,Tyukalinsk,55.8732,72.1967,62.78,94,100,12.66,RU,1658972520
163,San Cristobal,7.7669,-72.225,68.18,95,34,2.04,VE,1658972491
164,Pringsewu,-5.3582,104.9744,76.53,91,100,1.45,ID,1658972541
165,Tadine,-21.55,167.8833,72.46,68,82,13.06,NC,1658972542
166,Mareeba,-17.0,145.4333,75.43,59,5,7.78,AU,1658972542
167,Beitbridge,-22.2167,30.0,60.31,51,0,4.99,ZW,1658972542
168,Brebes,-6.8706,109.0369,82.26,68,85,3.15,ID,1658972542
169,Roma,43.2128,-75.4557,72.73,83,0,1.99,US,1658972543
170,Comodoro Rivadavia,-45.8667,-67.5,44.46,49,0,14.97,AR,1658972408
171,Kahului,20.8947,-156.47,87.82,48,20,23.02,US,1658972443
172,Necochea,-38.5473,-58.7368,49.75,97,100,12.44,AR,1658972543
173,Acarau,-2.8856,-40.12,79.07,77,100,14.9,BR,1658972544
174,Coshocton,40.272,-81.8596,77.34,96,93,6.35,US,1658972544
175,Oktyabrskiy,54.4815,53.471,62.19,88,66,3.96,RU,1658972544
176,Kautokeino,69.0125,23.0412,46.27,84,98,18.41,NO,1658972544
177,Jamestown,42.097,-79.2353,72.99,71,100,6.91,US,1658972545
178,Paamiut,61.994,-49.6678,42.01,93,67,15.82,GL,1658972545
179,Mar Del Plata,-38.0023,-57.5575,51.1,58,100,17.0,AR,1658972545
180,Saint George,37.1041,-113.5841,81.19,60,75,11.5,US,1658972327
181,Westport,41.1415,-73.3579,77.43,83,0,5.75,US,1658972543
182,Luderitz,-26.6481,15.1594,54.48,76,0,1.61,NA,1658972334
183,Dakar,14.6937,-17.4441,81.48,82,61,18.21,SN,1658972448
184,Sao Filipe,14.8961,-24.4956,78.46,88,84,2.57,CV,1658972546
185,Gigmoto,13.7796,124.39,87.71,66,100,6.46,PH,1658972606
186,Vallenar,-28.5708,-70.7581,61.07,60,91,2.26,CL,1658972607
187,Torbay,47.6666,-52.7314,63.57,88,20,9.22,CA,1658972607
188,Kaitangata,-46.2817,169.8464,44.98,94,100,7.31,NZ,1658972607
189,Gat,31.61,34.7642,77.4,69,0,2.55,IL,1658972607
190,Tarpon Springs,28.1461,-82.7568,86.02,82,0,3.0,US,1658972333
191,Tucuman,-26.8241,-65.2226,71.6,64,100,4.61,AR,1658972399
192,Rivadavia,-33.1905,-68.4608,49.6,65,100,6.85,AR,1658972608
193,Piripiri,-4.2733,-41.7769,78.15,67,100,2.48,BR,1658972348
194,Acajutla,13.5928,-89.8275,79.38,83,71,0.89,SV,1658972608
195,Erzurum,40.0,41.5,46.08,73,0,2.59,TR,1658972608
196,Russell,32.3502,-85.1999,87.4,74,20,4.61,US,1658972609
197,Saint Anthony,45.0205,-93.218,75.13,44,0,12.66,US,1658972581
198,Hamilton,39.1834,-84.5333,78.85,87,0,3.44,US,1658972609
199,Kralendijk,12.15,-68.2667,80.58,83,20,9.22,BQ,1658972609
200,Lukulu,-14.3707,23.242,51.57,66,70,5.79,ZM,1658972610
201,Eskil,38.4017,33.4131,66.74,41,0,6.02,TR,1658972610
202,Sitka,57.0531,-135.33,60.69,77,100,3.44,US,1658972610
203,Port Elizabeth,-33.918,25.5701,59.09,93,40,2.3,ZA,1658972611
204,Turukhansk,65.8167,87.9833,61.86,89,100,4.0,RU,1658972612
205,Abilene,32.4487,-99.7331,98.82,24,0,14.97,US,1658972546
206,Ahtopol,42.1,27.95,71.01,84,0,1.25,BG,1658972612
207,Lao Cai,22.4833,103.95,85.17,75,71,1.61,VN,1658972613
208,Cherskiy,68.75,161.3,55.15,46,100,5.37,RU,1658972613
209,Hobyo,5.3505,48.5268,74.7,81,100,22.79,SO,1658972613
210,Touros,-5.1989,-35.4608,73.6,85,12,11.34,BR,1658972613
211,Matay,28.419,30.7792,80.13,28,0,8.66,EG,1658972614
212,Fortuna,40.5982,-124.1573,65.93,79,0,13.8,US,1658972614
213,Bilma,18.6853,12.9164,83.79,49,73,12.28,NE,1658972406
214,Tessalit,20.1986,1.0114,94.03,20,64,10.22,ML,1658972614
215,Atenas,37.9795,23.7162,83.16,43,0,5.01,GR,1658972564
216,Kamaishi,39.2667,141.8833,78.76,78,35,5.21,JP,1658972615
217,La Ronge,55.1001,-105.2842,71.85,33,40,8.05,CA,1658972615
218,Matamoros,25.5333,-103.25,84.31,37,75,24.16,MX,1658972480
219,Ust-Nera,64.5667,143.2,71.47,41,87,1.97,RU,1658972615
220,East London,-33.0153,27.9116,63.63,77,100,10.2,ZA,1658972527
221,Talnakh,69.4865,88.3972,54.21,62,89,11.16,RU,1658972558
222,Padang,-0.9492,100.3543,75.25,61,30,2.15,ID,1658972616
223,Bethel,41.3712,-73.414,76.17,73,0,1.01,US,1658972616
224,Cabo San Lucas,22.8909,-109.9124,86.61,67,21,9.19,MX,1658972598
225,Mount Gambier,-37.8333,140.7667,54.01,59,100,7.2,AU,1658972616
226,Namatanai,-3.6667,152.4333,84.63,68,85,12.33,PG,1658972617
227,Aykhal,66.0,111.5,79.97,62,38,11.7,RU,1658972617
228,Noyabrsk,63.1994,75.4507,57.11,63,7,12.33,RU,1658972617
229,Chunoyar,57.4467,97.3217,62.74,74,100,7.09,RU,1658972618
230,Monteagudo,-19.8167,-63.9833,60.4,82,32,2.06,BO,1658972618
231,Surgut,61.25,73.4167,59.09,82,0,8.99,RU,1658972618
232,Castro,-24.7911,-50.0119,57.09,81,98,2.64,BR,1658972619
233,Narsaq,60.9167,-46.05,50.22,86,11,4.16,GL,1658972679
234,Garissa,-0.4536,39.6401,69.64,88,71,11.1,KE,1658972679
235,Nedelino,41.45,25.0833,68.23,54,0,4.5,BG,1658972679
236,Coihaique,-45.5752,-72.0662,39.15,65,0,2.3,CL,1658972488
237,Kruisfontein,-34.0033,24.7314,56.88,90,1,4.52,ZA,1658972680
238,Teguldet,57.3064,88.1667,66.7,60,69,3.33,RU,1658972680
239,Alibag,18.6411,72.8792,78.87,83,100,2.59,IN,1658972439
240,Kudahuvadhoo,2.6708,72.8944,82.4,74,100,14.79,MV,1658972680
241,Carnarvon,-24.8667,113.6333,73.49,44,100,4.23,AU,1658972681
242,Sur,22.5667,59.5289,80.47,74,82,16.13,OM,1658972681
243,Fare,-16.7,-151.0167,78.31,76,13,24.32,PF,1658972494
244,Kirksville,40.1948,-92.5833,78.75,84,0,0.0,US,1658972681
245,Kavieng,-2.5744,150.7967,84.85,70,17,18.25,PG,1658972559
246,Khasan,42.4308,130.6434,74.44,84,70,8.75,RU,1658972682
247,Kendari,-3.945,122.4989,83.66,62,37,3.65,ID,1658972682
248,Trojes,41.756,19.962,73.89,81,68,7.25,AL,1658972682
249,Nanortalik,60.1432,-45.2371,42.37,86,96,7.67,GL,1658972662
250,Rio Gallegos,-51.6226,-69.2181,33.85,69,0,20.71,AR,1658972683
251,Sola,-13.8833,167.55,79.86,78,100,11.18,VU,1658972683
252,Fuerte Olimpo,-21.0415,-57.8738,75.29,36,0,5.48,PY,1658972684
253,Inverell,-29.7833,151.1167,64.67,49,2,5.01,AU,1658972684
254,Key West,24.5557,-81.7826,89.6,74,75,16.11,US,1658972684
255,Geraldton,-28.7667,114.6,61.21,72,40,10.36,AU,1658972685
256,Tasiilaq,65.6145,-37.6368,39.36,95,86,7.74,GL,1658972685
257,Klaksvik,62.2266,-6.589,52.72,93,80,14.03,FO,1658972685
258,Spearfish,44.4908,-103.8594,75.09,46,40,11.5,US,1658972490
259,Batangafo,7.3008,18.2833,69.8,98,100,2.86,CF,1658972686
260,Anadyr,64.75,177.4833,52.3,81,75,8.95,RU,1658972686
261,Mahajanga,-15.7167,46.3167,64.42,100,0,2.3,MG,1658972686
262,Itarsi,22.6167,77.75,77.86,89,100,6.17,IN,1658972686
263,High Level,58.5169,-117.136,84.31,39,20,6.91,CA,1658972405
264,Adrar,20.5022,-10.0711,96.31,10,0,9.28,MR,1658972565
265,Formosa,-26.1775,-58.1781,75.18,64,0,9.22,AR,1658972687
266,Roald,62.5833,6.1333,49.75,87,100,4.61,NO,1658972687
267,Vestmanna,62.1564,-7.1664,50.92,100,100,12.66,FO,1658972406
268,Nemuro,43.3236,145.575,64.35,93,54,4.36,JP,1658972688
269,Del Rio,29.3627,-100.8968,97.2,28,0,13.8,US,1658972669
270,Esperance,-33.8667,121.9,60.03,53,0,17.87,AU,1658972431
271,Bogovina,43.895,21.9403,70.92,68,100,3.2,RS,1658972688
272,Hambantota,6.1241,81.1185,75.54,100,40,2.3,LK,1658972688
273,Broken Hill,-31.95,141.4333,58.05,37,0,5.84,AU,1658972689
274,Ilulissat,69.2167,-51.1,44.62,93,75,4.61,GL,1658972404
275,Boa Esperanca,-21.09,-45.5658,61.11,56,4,3.22,BR,1658972689
276,Arrifes,37.7667,-25.7,71.85,83,75,4.61,PT,1658972689
277,Camacha,33.0833,-16.3333,67.42,78,40,12.66,PT,1658972690
278,Moree,-29.4667,149.85,61.38,45,0,11.48,AU,1658972750
279,Half Moon Bay,37.4636,-122.4286,80.55,80,100,23.02,US,1658972537
280,Nhulunbuy,-12.2333,136.7667,81.21,61,40,21.85,AU,1658972750
281,Ahipara,-35.1667,173.1667,57.87,87,66,16.62,NZ,1658972750
282,Rodino,52.5,80.25,73.62,49,100,16.31,RU,1658972751
283,Jiazi,22.8779,116.067,87.89,65,36,7.56,CN,1658972751
284,Erenhot,43.6475,111.9767,81.59,23,20,8.28,CN,1658972751
285,Berlevag,70.8578,29.0864,49.95,93,100,23.02,NO,1658972633
286,Hasaki,35.7333,140.8333,91.29,80,72,16.04,JP,1658972752
287,Belaya Gora,68.5333,146.4167,62.47,34,97,13.31,RU,1658972752
288,Gillette,44.2911,-105.5022,74.86,44,19,13.0,US,1658972580
289,Awbari,26.5921,12.7805,78.87,16,0,6.82,LY,1658972752
290,Thunder Bay,48.4001,-89.3168,60.78,88,100,3.44,CA,1658972753
291,Taoudenni,22.6783,-3.9836,98.33,6,6,16.28,ML,1658972753
292,Havelock,34.8791,-76.9013,82.94,88,63,7.0,US,1658972753
293,Tiarei,-17.5333,-149.3333,84.22,79,23,27.76,PF,1658972754
294,Port Keats,-14.25,129.55,82.56,28,44,10.8,AU,1658972754
295,Vaitape,-16.5167,-151.75,78.69,75,13,25.48,PF,1658972755
296,Mandan,46.8267,-100.8896,69.37,56,0,11.5,US,1658972755
297,Palmer,42.1584,-72.3287,75.06,74,75,3.44,US,1658972755
298,Barcelos,41.5388,-8.6151,64.85,79,1,2.53,PT,1658972661
299,Mindyak,54.0231,58.7891,53.74,84,79,4.18,RU,1658972755
300,Rovaniemi,66.5,25.7167,51.21,87,100,8.05,FI,1658972756
301,Santa Maria,-29.6842,-53.8069,63.7,100,20,4.61,BR,1658972532
302,Hong Gai,20.956,107.0946,89.51,63,51,4.27,VN,1658972756
303,Yulara,-25.2406,130.9889,57.49,23,10,13.98,AU,1658972654
304,Yantai,37.5333,121.4,82.35,74,91,5.82,CN,1658972756
305,Nikolskoye,59.7035,30.7861,57.79,94,0,4.41,RU,1658972757
306,Diamantino,-14.4086,-56.4461,71.33,39,0,4.94,BR,1658972757
307,Altay,47.8667,88.1167,74.88,29,15,3.42,CN,1658972757
308,Lumphat,13.4878,106.9816,82.62,82,79,1.81,KH,1658972758
309,Durres,41.3231,19.4414,77.18,67,15,2.57,AL,1658972758
310,Cockburn Town,21.4612,-71.1419,81.23,77,0,20.74,TC,1658972758
311,Vondrozo,-22.8167,47.2833,58.96,91,79,2.17,MG,1658972759
312,Missoula,47.0166,-113.8009,88.2,28,3,3.6,US,1658972701
313,Itarema,-2.9248,-39.9167,78.91,78,100,14.63,BR,1658972518
314,Avera,33.194,-82.5271,81.91,57,52,8.86,US,1658972759
315,Shimoda,34.6667,138.95,87.1,77,94,8.77,JP,1658972759
316,Helong,42.5397,128.9972,83.89,56,96,4.23,CN,1658972760
317,Samarai,-10.6167,150.6667,79.11,84,91,11.59,PG,1658972699
318,Honiara,-9.4333,159.95,86.88,64,100,8.72,SB,1658972760
319,Komotini,41.1228,25.3964,73.81,48,0,6.69,GR,1658972760
320,Apricena,41.7839,15.4437,67.82,75,0,1.14,IT,1658972761
321,Ocos,14.5094,-92.1933,80.47,74,36,0.89,GT,1658972761
322,Gao,16.6362,1.637,90.27,42,100,18.37,ML,1658972633
323,El Seibo,18.7641,-69.0375,76.53,90,0,6.46,DO,1658972761
324,Margate,51.3813,1.3862,63.9,76,100,3.0,GB,1658972578
325,Eleusis,38.0476,23.5349,83.66,40,0,3.44,GR,1658972762
326,Makakilo City,21.3469,-158.0858,89.92,45,0,14.97,US,1658972822
327,Tucumcari,35.1717,-103.725,76.84,61,100,10.36,US,1658972822
328,Axim,4.8699,-2.2405,75.99,82,99,13.56,GH,1658972726
329,Pinyug,60.251,47.7842,58.3,84,4,4.85,RU,1658972823
330,Alofi,-19.0595,-169.9187,78.69,78,20,16.11,NU,1658972823
331,Kidal,18.4411,1.4078,91.08,35,71,15.88,ML,1658972823
332,Pitimbu,-7.4706,-34.8086,73.99,80,88,8.39,BR,1658972824
333,Georgetown,5.4112,100.3354,82.33,86,20,5.99,MY,1658972570
334,Saskylakh,71.9167,114.0833,70.92,58,85,10.11,RU,1658972807
335,Ardud,47.6333,22.8833,61.57,94,80,1.14,RO,1658972824
336,Chesma,53.8111,60.6533,55.17,83,1,10.25,RU,1658972824
337,Khatanga,71.9667,102.5,69.69,48,88,2.48,RU,1658972566
338,Batagay-Alyta,67.8006,130.4114,79.86,44,41,3.65,RU,1658972773
339,Nantucket,41.2835,-70.0995,75.25,85,0,6.91,US,1658972825
340,Goderich,43.7501,-81.7165,73.72,78,0,9.22,CA,1658972825
341,Fos-Sur-Mer,43.4377,4.9446,73.51,43,0,3.44,FR,1658972825
342,Waw,7.7029,27.9953,70.02,92,100,3.27,SS,1658972826
343,Nelidovo,56.2211,32.7774,60.44,96,100,3.18,RU,1658972826
344,Mehamn,71.0357,27.8492,49.91,100,100,21.85,NO,1658972826
345,Uzhhorod,48.6167,22.3,66.47,68,94,5.39,UA,1658972826
346,Ambilobe,-13.2,49.05,63.19,91,6,3.15,MG,1658972827
347,Dodge City,37.7528,-100.0171,86.25,56,100,1.99,US,1658972827
348,Plant City,28.0186,-82.1129,80.62,89,0,0.0,US,1658972827
349,Plettenberg Bay,-34.0527,23.3716,55.35,75,0,5.48,ZA,1658972828
350,Sistranda,63.7256,8.834,48.16,73,100,12.48,NO,1658972828
351,Kushmurun,52.4503,64.6311,63.19,68,61,17.43,KZ,1658972828
352,Mayumba,-3.432,10.6554,68.68,89,26,1.39,GA,1658972829
353,Ixtapa,20.7,-105.2,82.22,94,100,1.01,MX,1658972829
354,Sechura,-5.5569,-80.8222,63.97,81,6,17.25,PE,1658972771
355,Saldanha,-33.0117,17.9442,44.65,68,0,4.47,ZA,1658972829
356,Svetlaya,46.5389,138.3297,68.85,82,43,6.71,RU,1658972829
357,Mao,39.8885,4.2658,73.96,73,0,0.0,ES,1658972830
358,Bantou,26.2151,117.4893,95.05,50,67,0.81,CN,1658972830
359,Lakes Entrance,-37.8811,147.981,55.17,56,63,12.26,AU,1658972730
360,Laguna,38.421,-121.4238,99.32,35,0,12.66,US,1658972737
361,Kermanshah,34.3142,47.065,63.5,15,0,0.0,IR,1658972830
362,Katobu,-4.9408,122.5276,83.48,58,17,9.62,ID,1658972831
363,Grand Gaube,-20.0064,57.6608,67.37,79,3,3.0,MU,1658972831
364,Marang,5.2056,103.2059,78.71,72,93,6.13,MY,1658972831
365,Koslan,63.4564,48.8989,59.36,68,16,5.46,RU,1658972832
366,Charters Towers,-20.1,146.2667,67.84,29,0,10.11,AU,1658972832
367,Hargeysa,9.56,44.065,68.05,54,39,27.42,SO,1658972832
368,Beringovskiy,63.05,179.3167,48.7,92,100,2.89,RU,1658972671
369,Kedrovyy,56.1667,91.8167,61.21,58,74,2.46,RU,1658972833
370,Bon Accord,53.8335,-113.4187,81.95,67,44,5.61,CA,1658972833
371,Vao,-22.6667,167.4833,69.15,68,100,7.72,NC,1658972833
372,Yar-Sale,66.8333,70.8333,59.99,63,100,12.37,RU,1658972834
373,Lorengau,-2.0226,147.2712,84.63,72,50,12.37,PG,1658972894
374,Souillac,-20.5167,57.5167,66.58,94,40,4.61,MU,1658972894
375,Bolshaya Sosnova,57.6713,54.6029,56.71,80,21,4.72,RU,1658972895
376,Shumskiy,54.8318,99.1328,65.8,53,100,0.87,RU,1658972895
377,Freeport,40.6576,-73.5832,79.41,73,0,8.05,US,1658972895
378,Smithers,54.7804,-127.1743,88.12,33,0,6.91,CA,1658972710
379,Shache,38.4167,77.2406,88.47,18,3,5.86,CN,1658972896
380,Rio Grande,-32.035,-52.0986,60.17,96,96,7.49,BR,1658972896
381,Husavik,66.0449,-17.3389,53.71,84,49,8.12,IS,1658972896
382,Vezirkopru,41.1436,35.4547,57.69,76,0,0.34,TR,1658972897
383,Guerrero Negro,27.9769,-114.0611,70.21,78,63,16.37,MX,1658972858
384,Chuncheng,22.1731,111.7886,89.8,64,9,1.48,CN,1658972897
385,Atar,20.5169,-13.0499,96.71,17,53,18.07,MR,1658972627
386,Henties Bay,-22.116,14.2845,53.47,82,2,4.18,NA,1658972897
387,Lebedyn,50.5852,34.4849,63.61,87,75,5.77,UA,1658972898
388,Paysandu,-32.3214,-58.0756,64.6,86,84,6.89,UY,1658972898
389,Lagoa,39.05,-27.9833,71.22,81,0,7.74,PT,1658972781
390,Bosaso,11.2842,49.1816,89.31,37,56,25.48,SO,1658972898
391,Mikumi,-7.4041,36.9831,62.65,83,43,1.34,TZ,1658972898
392,Kapit,2.0167,112.9333,85.01,69,69,1.45,MY,1658972899
393,Siena,43.2167,11.4,72.16,80,0,2.77,IT,1658972899
394,Eureka,40.8021,-124.1637,66.2,80,23,1.01,US,1658972757
395,Humaita,-7.5061,-63.0208,76.15,45,0,1.45,BR,1658972899
396,Ormond Beach,29.2858,-81.0559,84.29,87,20,4.61,US,1658972862
397,Tilichiki,60.4667,166.1,49.28,67,100,14.99,RU,1658972900
398,Bonavista,48.6499,-53.1147,60.28,95,11,10.69,CA,1658972900
399,Yeppoon,-23.1333,150.7333,65.98,49,0,7.7,AU,1658972900
400,Kadnikov,59.5022,40.338,62.56,98,100,4.61,RU,1658972901
401,Vila Franca Do Campo,37.7167,-25.4333,73.81,93,66,3.31,PT,1658972901
402,Mitchell,43.7094,-98.0298,75.18,55,75,11.5,US,1658972901
403,Kalmunai,7.4167,81.8167,79.27,77,99,2.73,LK,1658972901
404,Krasnoye,49.9145,24.6134,56.98,90,84,3.49,UA,1658972902
405,Bom Jesus,-9.0744,-44.3586,71.13,49,78,0.94,BR,1658972902
406,Montepuez,-13.1256,38.9997,59.92,84,3,5.88,MZ,1658972902
407,Puri,19.8,85.85,82.92,72,84,9.42,IN,1658972903
408,Ternate,0.8,127.4,82.17,76,95,3.27,ID,1658972903
409,Presidencia Roque Saenz Pena,-26.7852,-60.4388,74.66,42,68,6.02,AR,1658972903
410,Mporokoso,-9.3727,30.125,54.19,65,9,5.84,ZM,1658972904
411,Turangi,-39.0,175.9333,48.25,97,100,10.36,NZ,1658972757
412,Severnoye,56.3491,78.3619,65.08,87,100,6.64,RU,1658972904
413,Haines Junction,60.7522,-137.5108,55.35,71,100,4.61,CA,1658972904
414,Arlit,18.7369,7.3853,88.72,41,98,21.77,NE,1658972904
415,Isiro,2.7739,27.616,66.16,100,99,1.5,CD,1658972905
416,Portland,45.5234,-122.6762,98.46,42,20,10.36,US,1658972782
417,Rumphi,-11.0186,33.8575,54.7,93,12,3.78,MW,1658972905
418,Sembe,1.6481,14.5806,72.48,86,92,3.06,CG,1658972905
419,Esteio,-29.8614,-51.1792,68.38,93,100,1.14,BR,1658972906
420,Manavalakurichi,8.1333,77.3,76.89,86,59,10.47,IN,1658972906
421,Tuatapere,-46.1333,167.6833,44.56,94,100,1.77,NZ,1658972906
422,Alcaudete,37.5909,-4.0824,72.54,33,0,1.07,ES,1658972967
423,La Lira,20.4667,-100.15,55.11,100,100,9.22,MX,1658972967
424,Coahuayana,18.7333,-103.6833,79.59,80,100,1.66,MX,1658972967
425,Qasigiannguit,68.8193,-51.1922,44.85,93,100,1.1,GL,1658972967
426,Srednekolymsk,67.45,153.6833,55.63,44,99,10.69,RU,1658972968
427,Prieska,-29.6641,22.7474,53.24,32,0,2.59,ZA,1658972968
428,Bireun,5.203,96.7009,79.92,79,100,1.1,ID,1658972968
429,Sibolga,1.7427,98.7792,83.37,60,43,1.28,ID,1658972969
430,Lydenburg,-25.0978,30.4597,46.63,67,4,3.65,ZA,1658972969
431,Varzea Da Palma,-17.5981,-44.7308,62.2,62,0,2.66,BR,1658972969
432,Acapulco,16.8634,-99.8901,78.75,85,100,2.04,MX,1658972858
433,Ust-Ilimsk,58.0006,102.6619,57.34,91,100,3.83,RU,1658972970
434,Santo Domingo,18.5001,-69.9886,77.94,83,75,0.0,DO,1658972772
435,Sisimiut,66.9395,-53.6735,42.1,90,54,0.65,GL,1658972970
436,Bambous Virieux,-20.3428,57.7575,67.21,94,40,4.61,MU,1658972970
437,Moose Factory,51.2585,-80.6094,64.4,94,100,5.75,CA,1658972673
438,Thinadhoo,0.5333,72.9333,83.1,72,96,13.91,MV,1658972921
439,Pacific Grove,36.6177,-121.9166,71.02,83,75,8.05,US,1658972793
440,Deputatskiy,69.3,139.9,60.46,42,81,5.75,RU,1658972971
441,Vardo,70.3705,31.1107,53.58,87,100,13.8,NO,1658972971
442,Teacapan,22.55,-105.75,82.72,81,100,6.24,MX,1658972971
443,Ballina,-28.8667,153.5667,65.01,54,0,5.46,AU,1658972972
444,Biu,10.6129,12.1946,67.15,89,100,4.88,NG,1658972972
445,Nakhon Si Thammarat,8.25,100.0,89.02,74,91,3.29,TH,1658972972
446,Aklavik,68.2191,-135.0107,56.23,54,96,14.88,CA,1658972973
447,Coquimbo,-29.9533,-71.3436,55.36,86,100,5.03,CL,1658972730
448,Kloulklubed,7.0419,134.2556,82.9,71,100,7.27,PW,1658972973
449,Prince Rupert,54.3161,-130.3201,67.69,80,0,14.97,CA,1658972686
450,Dwarahat,29.7833,79.4333,69.26,92,90,1.03,IN,1658972973
451,Ust-Maya,60.4167,134.5333,83.75,43,97,2.59,RU,1658972974
452,Balkanabat,39.5108,54.3671,88.32,31,0,9.71,TM,1658972974
453,Celestun,20.8667,-90.4,82.09,76,88,12.86,MX,1658972974
454,Marshfield,44.6689,-90.1718,74.28,64,20,8.05,US,1658972975
455,Stornoway,58.2093,-6.3865,48.92,97,100,1.14,GB,1658972962
456,Pokhara,28.2333,83.9833,71.06,96,100,0.92,NP,1658972975
457,Havre,49.5833,0.3333,64.17,48,0,11.5,FR,1658972975
458,Gamba,-2.65,10.0,68.61,92,33,2.95,GA,1658972975
459,Pangai,-19.8,-174.35,80.71,74,40,18.41,TO,1658972976
460,Lavrentiya,65.5833,-171.0,41.9,82,100,7.31,RU,1658972737
461,Hastings,50.8552,0.5729,63.91,91,100,11.72,GB,1658972976
462,Mbarara,-0.608,30.65,68.11,54,99,0.94,UG,1658972976
463,Ouesso,1.6136,16.0517,70.72,93,66,1.5,CG,1658972977
464,Porto-Vecchio,41.591,9.2795,74.73,77,0,3.44,FR,1658972977
465,Ayagoz,47.9714,80.4392,82.51,26,16,13.0,KZ,1658972977
466,Saint-Pierre,-21.3393,55.4781,67.91,70,75,6.91,RE,1658972779
467,Icatu,-2.7758,-44.0658,81.03,88,18,5.21,BR,1658972978
468,Dhrangadhra,22.9833,71.4667,80.19,82,90,9.1,IN,1658972978
469,Springfield,37.2153,-93.2982,82.02,84,0,5.01,US,1658972852
470,Port Blair,11.6667,92.75,82.44,83,75,2.3,IN,1658973038
471,Kholodnyy,62.7167,147.95,63.5,40,38,1.32,RU,1658973039
472,Dafeng,23.4517,108.5881,88.38,59,100,2.39,CN,1658973039
473,Gagra,43.3283,40.2239,63.52,72,0,3.96,GE,1658973039
474,Griffith,41.5284,-87.4237,79.9,94,40,0.0,US,1658973040
475,Mrakovo,52.7161,56.6244,58.96,93,19,2.82,RU,1658973040
476,Lagoa Formosa,-18.7786,-46.4075,56.01,56,0,0.49,BR,1658973040
477,Aldan,58.6031,125.3894,81.64,48,6,0.31,RU,1658973041
478,Nuuk,64.1835,-51.7216,40.12,95,72,14.07,GL,1658973041
479,High Prairie,55.4334,-116.4858,81.19,48,2,7.34,CA,1658973041
480,Petatlan,17.5167,-101.2667,78.87,83,100,3.6,MX,1658973041
481,Camargo,27.6667,-105.1667,86.36,34,27,7.4,MX,1658973042
482,Bara,10.3744,10.7288,70.48,97,100,6.87,NG,1658972768
483,Evensk,61.95,159.2333,58.66,53,68,2.95,RU,1658972996
484,Zhezkazgan,47.8043,67.7144,67.98,60,0,8.95,KZ,1658973042
485,Terracina,41.2863,13.2217,75.92,79,0,4.23,IT,1658973042
486,Muncar,-8.4333,114.3333,78.82,75,95,6.89,ID,1658973043
487,Iqaluit,63.7506,-68.5145,51.53,71,75,3.44,CA,1658973043
488,Ojinaga,29.5667,-104.4167,88.75,42,40,13.8,MX,1658973043
489,Faanui,-16.4833,-151.75,78.69,76,15,25.5,PF,1658973044
490,Egvekinot,66.3167,-179.1667,39.31,81,100,5.35,RU,1658973044
491,Altamira,-3.2033,-52.2064,77.47,71,100,1.97,BR,1658973044
492,Rabo De Peixe,37.8,-25.5833,72.91,83,75,4.61,PT,1658973044
493,Ostrovnoy,68.0531,39.5131,59.9,86,58,15.86,RU,1658973045
494,Luwingu,-10.2621,29.9271,49.91,70,5,3.36,ZM,1658973045
495,Floro,61.5996,5.0328,46.36,87,10,4.61,NO,1658973045
496,Lafiagi,8.8667,5.4167,72.48,96,100,3.8,NG,1658973046
497,Bratsk,56.1325,101.6142,61.29,63,100,7.7,RU,1658972768
498,Port Macquarie,-31.4333,152.9167,63.9,47,0,5.59,AU,1658973046
499,Tautira,-17.7333,-149.15,76.98,79,42,26.33,PF,1658973046
500,Thurso,58.5927,-3.5259,50.86,87,100,6.67,GB,1658973047
501,Verkhoyansk,67.5447,133.385,81.21,40,99,3.29,RU,1658973047
502,Natal,-5.795,-35.2094,75.42,88,0,5.75,BR,1658973047
503,Benemerito De Las Americas,16.5167,-90.6439,74.32,96,100,0.94,MX,1658973047
504,Peniche,39.3558,-9.3811,65.28,90,0,13.02,PT,1658973048
505,Druzhba,52.0428,33.9453,60.84,95,42,6.22,UA,1658973048
506,Claudio,-20.4433,-44.7658,59.76,57,1,3.31,BR,1658973048
507,Buraydah,26.326,43.975,90.05,13,100,7.11,SA,1658973049
508,Praya,14.9215,-23.5087,79.34,83,20,1.14,CV,1658972857
509,Bubaque,11.2833,-15.8333,79.99,77,100,8.14,GW,1658973049
510,Newtonmore,57.066,-4.1192,48.94,94,100,3.33,GB,1658973049
511,Balvi,57.1313,27.2658,48.67,86,67,4.88,LV,1658973050
512,Punta Ocote,15.2,-87.2833,68.88,93,29,3.09,HN,1658973050
513,Vanavara,60.34,102.2797,65.23,71,100,2.48,RU,1658973050
514,Burns Lake,54.2331,-125.7533,89.02,33,1,4.32,CA,1658973050
515,Vancouver,49.2497,-123.1193,89.02,55,20,8.05,CA,1658973058
516,Shizunai,42.3339,142.3669,75.09,79,45,10.36,JP,1658973111
517,Ndola,-12.9587,28.6366,51.93,81,8,5.19,ZM,1658973111
518,Pangnirtung,66.1451,-65.7125,54.72,67,100,1.83,CA,1658972900
519,Coaldale,49.7167,-112.6185,79.79,50,20,10.36,CA,1658973111
520,La Rioja,42.25,-2.5,55.18,87,0,3.18,ES,1658973112
521,Carutapera,-1.195,-46.02,75.13,88,100,5.61,BR,1658972899
522,Hualmay,-11.0964,-77.6139,61.97,85,39,11.34,PE,1658973112
523,Fuzhou,26.0614,119.3061,85.89,51,47,2.19,CN,1658973112
524,Batemans Bay,-35.7167,150.1833,57.09,46,22,5.12,AU,1658973113
525,Porto Belo,-27.1578,-48.5531,66.25,92,71,6.53,BR,1658973113
526,Sarkand,45.41,79.9186,80.71,37,95,8.88,KZ,1658973113
527,Albanel,48.8832,-72.4487,66.18,82,100,5.75,CA,1658973113
528,Kieta,-6.2167,155.6333,85.91,64,13,8.37,PG,1658972887
529,Naze,28.3667,129.4833,83.32,81,81,15.79,JP,1658973114
530,Basco,20.4487,121.9702,85.39,77,95,12.77,PH,1658973114
531,Kresttsy,58.2452,32.5165,59.34,99,100,2.86,RU,1658973114
532,Zhangjiakou,40.81,114.8794,73.85,61,19,2.44,CN,1658973115
533,Muros,42.7762,-9.0603,60.1,84,87,2.71,ES,1658973115
534,Kozhva,65.1073,57.0459,61.21,57,69,6.17,RU,1658973115
535,Varhaug,58.6147,5.6457,50.49,81,51,18.07,NO,1658973116
536,Graaff-Reinet,-32.2522,24.5308,43.92,94,5,1.72,ZA,1658973116
537,Agnibilekrou,7.1344,-3.2047,70.07,97,97,4.23,CI,1658973116
538,Aksarka,66.5606,67.7975,61.79,62,97,11.21,RU,1658973117
539,Zemio,5.0314,25.1361,68.34,98,100,3.78,CF,1658973117
540,Tevriz,57.509,72.4042,58.19,94,100,8.03,RU,1658973117
541,Krosno Odrzanskie,52.0549,15.0988,50.85,72,0,3.04,PL,1658973117
542,Peoria,40.7667,-89.7668,77.68,75,55,5.41,US,1658973118
543,Vrangel,42.7297,133.0839,73.53,85,20,5.91,RU,1658973118
544,Meulaboh,4.1363,96.1285,78.89,81,96,2.15,ID,1658973118
545,Luba,3.4568,8.5547,76.89,89,100,12.37,GQ,1658973119
546,Yatou,37.15,122.3833,77.36,90,100,9.62,CN,1658973119
547,Mitsamiouli,-11.3847,43.2844,75.54,70,37,5.73,KM,1658973119
548,Santa Rosa,14.3122,121.1114,87.12,83,100,8.66,PH,1658972878
549,Ossora,59.2353,163.0719,56.05,74,100,2.75,RU,1658972968
550,Buchanan,5.8808,-10.0467,74.7,85,100,10.6,LR,1658973120
551,Vestmannaeyjar,63.4427,-20.2734,51.96,77,93,15.57,IS,1658973016
552,Tashla,51.7716,52.7427,67.69,76,3,3.56,RU,1658973120
553,Mayachnyy,52.6839,55.685,61.05,88,2,3.09,RU,1658973120
554,Akyab,20.15,92.9,83.61,76,83,4.65,MM,1658973120
555,Puerto Del Rosario,28.5004,-13.8627,73.15,73,20,16.11,ES,1658973121
556,Sao Joao Da Barra,-21.6403,-41.0511,69.06,82,0,10.04,BR,1658973121
557,Benjamin Constant,-4.3831,-70.0311,77.13,88,72,2.35,BR,1658973121
558,Ulaanbaatar,47.9077,106.8832,51.93,76,40,2.24,MN,1658973013
559,Svetlyy,54.675,20.1347,57.96,81,85,14.5,RU,1658973122
560,San Pedro,14.35,121.0167,86.36,83,75,8.05,PH,1658972959
561,Canton,23.1167,113.25,91.35,47,28,3.85,CN,1658973008
562,Bahir Dar,11.5936,37.3908,59.45,93,100,3.36,ET,1658973122
563,Vikersund,59.9659,9.995,59.49,63,100,2.24,NO,1658973182
564,Domoni,-12.2569,44.5319,73.42,72,1,9.48,KM,1658973183
565,Oranjemund,-28.55,16.4333,51.93,84,0,2.33,NA,1658973183
566,Teguise,29.0605,-13.564,70.02,78,100,16.11,ES,1658973183
